name,longitude,latitude,countryLabel
Tansian university Umunya,6.895186,6.200123,Nigeria
Yenching University,116.305277777,39.989722222,Republic of China
Korea University,127.0325,37.589166666,South Korea
Augustana University,-96.737027777,43.526861111,United States of America
Obong University,7.5672013,4.946340333,Nigeria
Renaissance University (RNU),7.557,6.31,Nigeria
Caritas University,7.569677992,6.503856852,Nigeria
Bakı Avrasiya Akademik Universiteti,49.859692,40.406045,Azerbaijan
Columbia University,-73.961944444,40.8075,United States of America
James Hope University,3.588763057,6.47091803,Nigeria
성균관대학교,126.994166666,37.587222222,South Korea
Πανεπιστήμιο Λευκωσίας,33.314444444,35.165861111,Cyprus
"Mewar International University, Nigeria",7.672617854,8.987401163,Nigeria
University of Southern California,-118.285278,34.021667,United States of America
Yale University,-72.926666666,41.311111111,United States of America
Xi'an International University,108.86883,34.23381,People's Republic of China
واحد تبرىز دانشگاه آزاد اسلامى,46.388108,38.04374,Iran
Redeemer's University,4.4580597,7.680984,Nigeria
"Wellspring University Benin City, Edo State",5.5855,6.281,Nigeria
和光大学,139.473,35.5747,Japan
Chinese Culture University,121.53333333,25.13333333,Taiwan
Samuel Adegboyega University,6.196853014,6.516754109,Nigeria
Uka Tarsadia University,73.133225,21.069027777,India
Covenant University,3.157432,6.669936,Nigeria
Ashland University,-82.3231,40.8617,United States of America
Pacific Bible College,-122.593,45.506,United States of America
Crawford University,3.135877624,6.52882318,Nigeria
崇右影藝科技大學,121.7543363,25.1320759,Taiwan
Universidad de Concepción,-73.0341825,-36.8294765,Chile
숭실대학,126.95627,37.496295,South Korea
Caleb University,3.63903008,6.669481107,Nigeria
Pan-Atlantic University,3.8462184,6.4755735,Nigeria
연세대학교,126.936944444,37.560277777,South Korea
Chosun University,126.933055555,35.142222222,South Korea
Igbenedion University,5.3958046,6.7302189,Nigeria
Amrita Vishwa Vidyapeetham,76.90277778,10.90111111,India
Yakın Doğu Üniversitesi,33.32373,35.22669,Turkish Republic of Northern Cyprus
Clark University,-71.823169,42.250977,United States of America
광주여자전문대학,126.797366,35.163806,South Korea
Coal City University,7.584740826,6.461725339,Nigeria
"Hallmark University, Ijebu-Itele, Ogun State",4.048157208,6.97181166,Nigeria
Benson Idahosa University,5.63333333,6.33333333,Nigeria
Colegio Mayor de Nuestra Señora del Rosario,-74.073465,4.600231,Colombia
Bowen University,4.1889662,7.6236297,Nigeria
Elizade University,5.10749363,7.3673453,Nigeria
African University of Science & Technology,7.42276137,9.001403758,Nigeria
University of Chicago,-87.599722222,41.789722222,United States of America
Valparaiso University,-87.041845,41.463225,United States of America
건양대학교,127.112,36.1822,South Korea
Bells University of Technology,3.18586929,6.682872749,Nigeria
Achievers University,5.583249,7.174188,Nigeria
専修大学,139.753952777,35.696627777,Japan
Precious Cornerstone University,3.948537077,7.387959775,Nigeria
New Haven Restaurant Institute,-73.933229,41.745801,United States of America
성서침례대학원대학교,127.528130555,37.2089,South Korea
Augustine University Ilara,3.98340011,6.58409977,Nigeria
한반도국제대학원대학교,126.960079,37.543037,South Korea
Universidad Católica del Uruguay Dámaso Antonio Larrañaga,-56.15915833,-34.88849444,Uruguay
Princeton University,-74.656111111,40.345277777,United States of America
Colgate University,-75.536388888,42.819444444,United States of America
جامعة البلمند,35.782222222,34.366111111,Lebanon
"Christopher University Mowe, Ogun State",3.4756138,6.8298361,Nigeria
Nigerian Turkish Nile University,7.3965,9.01389,Nigeria
慶應義塾大学,139.742777777,35.649166666,Japan
株式会社サイバー大学,130.42225,33.662778,Japan
강서대학교,126.854777777,37.548361111,South Korea
Hezekiah University,7.14171953,5.76088682,Nigeria
Ahman Pategi University,5.786528005,8.719570182,Nigeria
Babcock University,3.7187,6.894,Nigeria
원광대학교,126.957333,35.969389,South Korea
Landmark University,5.082818,8.122788,Nigeria
Kings University,4.4075556,7.5647529,Nigeria
Leland Stanford Junior University,-122.1688576,37.4282293,United States of America
Novena University,6.205771092,5.754953573,Nigeria
Dartmouth College,-72.288333333,43.703333333,United States of America
Kwararafa University Wukari,9.778722292,7.87803342,Nigeria
Al-Qalam University,7.601555003,12.941773579,Nigeria
"KolaDaisi University Ibadan, Oyo State",3.9112534,7.6252312,Nigeria
Afe Babalola University,5.307051,7.670929,Nigeria
University of Notre Dame Australia,115.743380825,-32.055917859,Australia
American University of Nigeria,12.499648,9.191132,Nigeria
Università degli Studi Internazionali di Roma - UNINT,12.4963,41.8602,Italy
Capitol Technology University,-76.8515,39.0475,United States of America
Ajayi Crowther University,3.948523523,7.849847746,Nigeria
Oberlin College,-82.221666666,41.293055555,United States of America
Western Delta University Oghara,5.6888094,5.9981127,Nigeria
İzmir Ekonomi Üniversitesi,27.044722222,38.388333333,Turkey
Afe Babalola University.,5.301683844,7.601096948,Nigeria
감리교신학대학교,126.962417,37.567361,South Korea
SWPS Uniwersytet Humanistycznospołeczny,21.065888888,52.248416666,Poland
Wesley University of Science and Technology,4.816735598,7.108442038,Nigeria
Libera Università Internazionale degli Studi Sociali Guido Carli,12.493056,41.924444,Italy
숙명여자대학교,126.964649,37.545419,South Korea
University of Notre Dame du Lac,-86.238888888,41.7,United States of America
Cornell University,-76.483055555,42.447222222,United States of America
Ritman University,7.699876,5.1971457,Nigeria
Maranatha university,6.853125377,5.713057984,Nigeria
New York University,-73.995,40.73,United States of America
Wszechnica Polska Szkoła Wyższa w Warszawie,21.015,52.2714,Poland
Harvard University,-71.116943888,42.374443888,United States of America
American University of Beirut,35.482283333,33.899963888,Lebanon
Godfrey Okoye University,7.53216,6.4719,Nigeria
Adamas University,88.456591,22.738303,India
Akademi Kebidanan 'Aisyiyah Yogyakarta,110.3751963,-7.7690244,Indonesia
Gregory University,7.418922738,5.831556932,Nigeria
William Marsh Rice University,-95.402777777,29.716944444,United States of America
New School,-73.99704,40.73534,United States of America
Clifford university,7.315058,5.295705,Nigeria
Crescent University,3.321250313,7.161464336,Nigeria
Nile university of Nigeria,7.397239,9.014035,Nigeria
Fountain University,4.546475694,7.743824059,Nigeria
한국성서대학교,127.064341,37.648991,South Korea
Banja Luka College - Fakultet za medije i komunikaciju,17.188611111,44.761944444,Bosnia and Herzegovina
Chrisland University,3.40324,7.1397901,Nigeria
Bingham University,7.700159807,8.956658261,Nigeria
University of Dallas,-96.9258,32.8451,United States of America
الجامعة الإسلامية في لبنان,35.47493,33.78167,Lebanon
"University of Engineering & Management (UEM), Jaipur",75.701416666,27.21325,India
Carnegie Mellon University,-79.943333333,40.4425,United States of America
Paul University,7.066149276,6.199168536,Nigeria
高崎経済大学,138.977555,36.345316,Japan
Новосибірський електротехнічний інститут,82.904,54.988,Russia
Università degli Studi di Salerno,14.790555555,40.771111111,Italy
Canterbury Agricultural College,172.468611111,-43.644444444,New Zealand
Universidad Nacional de Rosario,-60.65,-32.94277778,Argentina
Криворожский государственный педагогический институт,33.411869,47.907377,Ukraine
Universiteit van die Vrystaat,26.1752,-29.1044,South Africa
Универзитет „Св. Кирил и Методиј“,21.4434,42.0004,North Macedonia
Orta Doğu Teknik Üniversitesi,32.784722222,39.891388888,Turkey
Erasmus Universiteit Rotterdam,4.525830555,51.918061111,Netherlands
"University of California, Santa Barbara",-119.8463925,34.4163232,United States of America
Edith Cowan University,115.653387813,-33.367082569,Australia
Nigeria Police Academy,8.802967028,11.821437532,Nigeria
Уральский государственный технический университет,60.654283,56.844053,Russia
Helmut-Schmidt-Universität/Universität der Bundeswehr Hamburg,10.10719,53.56785,Germany
Università degli Studi della Basilicata,15.8085,40.6471,Italy
Universidad Pública de Navarra,-1.636944444,42.800555555,Spain
Athabasca University,-113.303386111,54.722397222,Canada
Universität Freiburg,7.151738888,46.80625,Switzerland
Universitatea de Stat „Alecu Russo” din Bălți,27.92166111,47.75486667,Moldova
Иркутский государственный медицинский институт,104.2816667,52.27361112,Russia
Abubakar Tafawa Balewa University,9.8453553,10.3297704,Nigeria
Technische Universität Hamburg,9.969505555,53.460958333,Germany
Staatliche Hochschule für Musik und Darstellende Kunst Stuttgart,9.185833,48.778611,Germany
Friedrich-Schiller-Universität Jena,11.582222222,50.928333333,Germany
Евразийский лингвистический институт,104.278611,52.288611,Russia
Kıbrıs Universitesi,33.3778,35.1597,Cyprus
Universidade Estadual de Londrina,-51.2,-23.3253,Brazil
Universidade Estadual do Ceará,-38.5411983,-3.7418917,Brazil
Universidad de Salamanca,-5.666666666,40.961388888,Spain
Western Washington University,-122.486,48.734,United States of America
Universität Leipzig – Alma Mater Lipsiensis,12.378727777,51.3387,Germany
평양의학대학,125.742962412,39.01018856,North Korea
The University of Zambia,28.332222222,-15.394722222,Zambia
北京电影学院,116.3532808,39.9717416,People's Republic of China
Universidade Federal de Minas Gerais,-43.9663841,-19.8690878,Brazil
Universidade de Santiago de Compostela,-8.5449726,42.8885225,Spain
Université des sciences et techniques de Masuku,13.5523,-1.63039,Gabon
Hochschule für Bodencultur,16.337222222,48.236666666,Austria
The University of Adelaide,138.605361111,-34.920666666,Australia
Tartu Ülikool,26.720277777,58.381111111,Estonia
Гродзенскі дзяржаўны ўніверсітэт імя Янкі Купалы,23.8401808,53.6847993,Belarus
Нижегородский государственный университет,43.981256,56.298633,Russia
কলিকাতা বিশ্ববিদ্যালয়,88.3628,22.575,India
Ahmadu Bello University,7.65,11.15,Nigeria
Đại học Quốc gia Hà Nội,105.7968,20.99177,Vietnam
ივანე ჯავახიშვილის სახელობის თბილისის სახელმწიფო უნივერსიტეტი,44.778333333,41.71,Georgia
Liverpool John Moores University,-2.97,53.403,United Kingdom
University of Washington,-122.308055555,47.654166666,United States of America
University of Western Australia,115.818611111,-31.980277777,Australia
Západočeská univerzita v Plzni,13.353611111,49.718611111,Czech Republic
Universidad de Alcalá,-3.363215,40.482898,Spain
Ekonomická univerzita v Bratislave,17.1310268,48.1257816,Slovakia
Università degli Studi di Cagliari,9.115,39.216944444,Italy
Universidad de Sevilla,-5.9912307,37.3807579,Spain
Hochschule für Musik Köln,6.961217,50.947643,Germany
Delta State University Abraka,3.38611,6.51667,Nigeria
云南师范大学,102.69757,25.05577,People's Republic of China
Aberystwyth University,-4.06576,52.41806,United Kingdom
Akademie múzických umění v Praze,14.401944444,50.0875,Czech Republic
Мазырскі дзяржаўны педагагічны ўніверсітэт,29.25956,52.05062,Belarus
Sveučilište u Zagrebu,15.970097222,45.810672222,Croatia
Gottfried Wilhelm Leibniz Universität,9.717777777,52.382222222,Germany
Univerza v Mariboru,15.644444444,46.559444444,Slovenia
Усесаюзны завочны політэхнічны інстытут,37.663667,55.819556,Russia
Université de Lausanne,6.579444444,46.5225,Switzerland
Technische Universität Kaiserslautern,7.75306,49.4239,Germany
City University of New York,-73.9735038,40.750954355,United States of America
University of the Virgin Islands,-64.9728,18.3434,United States of America
جَامِعَة الْبَحْرَيْن,50.5084,26.0522,Bahrain
University of Port Harcourt,6.917077399,4.907171013,Nigeria
Loughborough University,-1.228611111,52.768333333,United Kingdom
جامعة اللاذقية,35.807778,35.523333,Syria
Masarykova univerzita,16.605277777,49.198611111,Czech Republic
Universidad de Castilla-La Mancha,-3.920611111,38.994111111,Spain
Bayero University,8.47944444,11.98055556,Nigeria
Azərbaycan Dövlət Tibb İnstitutu,49.832777,40.395589,Azerbaijan
Rheinische Friedrich-Wilhelms-Universität Bonn,7.102222222,50.733888888,Germany
جامعة هواري بومدين للعلوم و التكنولوجيا,3.18222,36.7144,Algeria
Federal University Wukari,9.779,7.8773,Nigeria
Universidade Federal de Juiz de Fora,-43.36708,-21.777943,Brazil
Usumanu Danfodiyo University,5.1994,13.1246,Nigeria
Martin College,-87.0364,35.2002,United States of America
Universidade Estadual do Norte do Paraná,-49.97361111,-23.16027778,Brazil
University of Barishal,90.3625,22.659722222,Bangladesh
Hochschule Karlsruhe,8.39083,49.0156,Germany
Middle Georgia State University,-83.7322,32.8072,United States of America
Маскоўскі інстытут інжынераў сельскагаспадарчай вытворчасці,37.550168,55.834502,Russia
Federal University Dutse,7.487,12.473,Nigeria
"Federal University, Otuoke",6.32121,4.798031,Nigeria
Leninqrad Dəmiryol Mühəndisləri İnstitutu,30.3158,59.9239,Russia
Texas State University,-97.9389,29.8892,United States of America
University of Zimbabwe,31.053055555,-17.783888888,Zimbabwe
Universiteit van Wes-Kaapland,18.6333,-33.9333,South Africa
University of York,-1.0525,53.94659,United Kingdom
AGH Université des Sciences et Technologies,19.92375,50.064528,Poland
Portsmouth and Gosport School of Science and Art,-1.0936,50.7953,United Kingdom
Université libanaise,35.522189,33.827815,Lebanon
Rowan University,-75.118438888,39.710916666,United States of America
Middle Tennessee State University,-86.360529,35.848027,United States of America
Київський національний університет імені Тараса Шевченка,30.511314,50.441903,Ukraine
বাংলাদেশ জাতীয় বিশ্ববিদ্যালয়,90.381944444,23.954444444,Bangladesh
University of Delaware,-75.752166666,39.679111111,United States of America
Львовский государственный университет,24.022464,49.840488,Ukraine
Uniwersytet Europejski Viadrina we Frankfurcie nad Odrą,14.553888888,52.342222222,Germany
جَامِعَة الْجَزَائِر بْن يُوسُف بْن خَدة,3.05542,36.7708,Algeria
Egri Tanárképző Főiskola,20.3729403,47.9003597,Hungary
Pedagogický inštitút v Nitre,18.091,48.3085,Slovakia
Universidad Nacional de Educación a Distancia,8.772882592,3.752383882,Equatorial Guinea
North-West University,27.093062,-26.693492,South Africa
Беларуская дзяржаўная кансерваторыя,27.55777778,53.90277778,Belarus
West Virginia State University,-81.765555555,38.3825,United States of America
Akademie der bildenden Künste Wien,16.365277777,48.201388888,Austria
Univerzita Karlova,14.4037,50.0884,Czech Republic
University of Ibadan,3.9003,7.4433,Nigeria
Российский экономический университет имени Г. В. Плеханова,37.62901,55.72759,Russia
Universidad Complutense de Madrid,-3.727030555,40.449038888,Spain
Federal University Gashua,11.012,12.8758,Nigeria
Universidad Autónoma de Madrid,-3.69611,40.5453,Spain
Uniwersytet Jagielloński,19.932777777,50.060833333,Poland
Washington State University,-117.1596,46.7252,United States of America
Kazi Nazrul University,86.994916666,23.694747222,India
Yunivesithi ya Afurika Tshipembe,28.199444444,-25.767222222,South Africa
Алтайский государственный аграрный университет,83.78313801,53.32977701,Russia
Московский институт нефтехимической и газовой промышленности,37.555277777,55.691944444,Russia
Szkoła Główna Handlowa w Warszawie,21.008889,52.208889,Poland
Curtin University,115.8936669,-32.0048589,Australia
Hochschule für angewandte Wissenschaften Weihenstephan-Triesdorf,11.730411,48.395708,Germany
University of Hertfordshire,-0.243888888,51.753333333,United Kingdom
Universitat Autònoma de Barcelona,2.107777777,41.500277777,Spain
University of Illinois at Chicago,-87.64925,41.871889,United States of America
"Universidade Estadual Paulista ""Júlio de Mesquita Filho""",-47.0694,-22.8172,Brazil
University of Cincinnati,-84.5155,39.132,United States of America
University of Abuja,7.180290906,8.980318489,Nigeria
Tshwane-Universiteit vir Tegnologie,28.1617,-25.7322,South Africa
Akademie für Malerei,12.36783611,51.33340583,Germany
Filmuniversität Babelsberg „Konrad Wolf“,13.116667,52.388611,Germany
Chuo Kikuu cha Dar es Salaam,39.2057,-6.7816,Tanzania
Nigerian Army University Biu,12.161106858,10.61918408,Nigeria
Universidad del Atlántico,-74.8753886,11.0191934,Colombia
University of Uyo,7.894804,5.053664,Nigeria
Univerzita Komenského v Bratislave,17.115944444,48.141222222,Slovakia
Hindi University,88.3358928,22.596728,India
Universidade Federal do ABC,-46.528,-23.645,Brazil
Universidad Pablo de Olavide,-5.938,37.355,Spain
Кубанский государственный аграрный университет,38.9285,45.0467,Russia
Georg-August-Universität Göttingen,9.93792,51.533979833,Germany
Универзитет у Београду,20.4575,44.818611111,Serbia
University of Liberia,-10.7947,6.29917,Liberia
University of Benin,5.60015,6.3337,Nigeria
University of Maryland Global Campus,-76.9567,38.9858,United States of America
Universidade Federal Fluminense,-43.1165843,-22.9032307,Brazil
Πανεπιστήμιο Ιωαννίνων,20.84,39.62,Greece
Universidad de La Laguna,-16.317047222,28.481761111,Spain
Universitatea Regele Carol I din Cernăuți,25.924444444,48.296944444,Ukraine
新加坡国立大学,103.776666666,1.295555555,Singapore
Akademia WSB,19.1906,50.3286,Poland
American University of Antigua,-61.797355,17.158803,Antigua and Barbuda
강원대학교,127.74416667,37.86944444,South Korea
國立東華大學,121.543577777,23.893905555,Taiwan
Babeș–Bolyai Tudományegyetem,23.591111111,46.767777777,Romania
강릉원주대학교,128.870138888,37.768778055,South Korea
New School,-73.997038888,40.735338888,United States of America
České vysoké učení technické v Praze,14.388472222,50.102166666,Czech Republic
Ленинградский электротехнический институт им. В. И. Ульянова (Ленина),30.32007,59.97113,Russia
Горный институт в городе Екатеринбург,60.59766,56.82569,Russia
Воронежский государственный лесотехнический университет имени Г. Ф. Морозова,39.2213,51.7185,Russia
한국전통문화대학교,126.897,36.308,South Korea
Калужский государственный университет имени К. Э. Циолковского,36.273888888,54.508888888,Russia
Cartoonists and Illustrators School,-73.98222222,40.73861111,United States of America
Ленинградский инженерно-экономический институт,30.00000001,59.00000001,Soviet Union
津田塾大学,139.46583,35.72194,Japan
Magyar Testnevelési és Sporttudományi Egyetem,19.025555555,47.492777777,Hungary
Краматорскі індустрыяльны інстытут,37.579,48.733,Ukraine
University of Georgia,-83.3745,33.9558,United States of America
Беларускі тэхналагічны інстытут імя С. М. Кірава,27.56,53.89166667,Belarus
Варонежскі інжынерна-будаўнічы інстытут,39.192222,51.652222,Russia
Иркутский государственный университет,104.278,52.2767,Russia
"Державний вищий навчальний заклад ""Івано-Франківський національний медичний університет""",24.7088,48.9216,Ukraine
Харківський державний інститут мистецтв ім. І. П. Котляревського,36.2319111,49.9912694,Ukraine
Тернопільський медичний інститут,25.590636111,49.551969444,Ukraine
Криворізький технічний університет,33.40127778,47.9055,Ukraine
Magyar Agrár- és Élettudományi Egyetem,19.3612,47.5938,Hungary
Куйбышаўскі дзяржаўны ўніверсітэт,50.1743,53.22208,Russia
Universität Zürich,8.548333333,47.374722222,Switzerland
Università degli Studi di Milano-Bicocca,9.213344,45.518406,Italy
Свярдлоўская вышэйшая партыйная школа,60.603395,56.822896,Russia
Uniwersytet Ekonomiczny we Wrocławiu,17.026373,51.089957,Poland
Кубанский государственный технологический университет,39.0035,45.0508,Russia
Delhi College of Engineering,77.11702778,28.74994722,India
Ульянаўскі сельскагаспадарчы інстытут,48.4052,54.3149,Russia
Арджанікідзэградскі машынабудаўнічы інстытут,34.305587,53.305179,Russia
Ленінградскі дзяржаўны інстытут культуры,30.3313,59.9462,Russia
Благовещенский сельскохозяйственный институт,127.5551,50.2654,Russia
Благовещенский медицинский институт,127.5458333,50.26555557,Russia
Florida Agricultural and Mechanical University,-84.2845,30.4178,United States of America
Санкт-Петербургский государственный университет промышленных технологий и дизайна,30.316574,59.934616,Russia
Одесский гидрометеорологический институт,30.741591,46.399988,Ukraine
Budapesti Református Teológiai Akadémia,19.102222,47.558889,Hungary
Institutul Politehnic „Traian Vuia” din Timișoara,21.23,45.74555556,Romania
University of Calabar,8.34059,4.95271,Nigeria
Национальный университет биоресурсов и природопользования Украины,30.5056,50.3839,Ukraine
Radboud Universiteit Nijmegen,5.865278,51.819444,Netherlands
Стерлитамакская педагогическая академия,55.938,53.636,Russia
Воронежский государственный педагогический университет,39.21866,51.68629,Russia
Chicago State University,-87.6097,41.7176,United States of America
Evangélikus Hittudományi Egyetem,19.1147,47.5193,Hungary
Jihočeská univerzita v Českých Budějovicích,14.45,48.98,Czech Republic
Hacettepe Üniversitesi Ankara Devlet Konservatuvarı,32.8255,39.9334,Turkey
Алтайский государственный гуманитарно-педагогический университет имени В. М. Шукшина,85.195805555,52.536888888,Russia
Государственный медицинский университет Туркменистана,58.3664,37.8783,Turkmenistan
University of Maiduguri,13.197004421,11.804931635,Nigeria
Ohio University,-82.1,39.3275,United States of America
Boston College,-71.170361111,42.335083333,United States of America
Towson University,-76.604722222,39.392777777,United States of America
帝國美術學校,139.4475,35.72611111,Japan
東京都立大学,139.377222222,35.616666666,Japan
Гомельскі філіял Беларускага політэхнічнага інстытута,30.93833333,52.40694444,Belarus
Маскоўскі тарфяны інстытут,35.9151,56.8656,Russia
Мінскі дзяржаўны лінгвістычны ўніверсітэт,27.578077,53.907111,Belarus
Пермский государственный национальный исследовательский университет,56.1867,58.0075,Russia
"Instituto Tecnológico y Estudios Superiores de Monterrey, Campus en Sinaloa",-107.4236645,24.8014485,Mexico
Львоўскі політэхнічны інстытут,24.0147,49.8356,Ukraine
Bakı Dövlət Universiteti,49.81141,40.37303,Azerbaijan
Тернопільська академія народного господарства,25.562394052,49.5530918,Ukraine
Texas Woman's University,-97.128,33.225,United States of America
1-й Московский медицинский институт,37.575,55.72805556,Russia
Московский педагогический государственный университет,37.47839,55.65798,Russia
Уральский государственный университет имени А. М. Горького,60.616119,56.840447,Russia
Ленинградский технологический институт,30.32,59.9183,Russia
Витебский учительский институт,30.22548,55.17781,Belarus
Літоўская акадэмія музыкі,25.26975,54.68858333,Lithuania
Смаленскі дзяржаўны педагагічны інстытут,32.0456,54.78477,Russia
Императорский Клинический институт,30.3733,59.943,Russia
Санкт-Петербургский химико-фармацевтический институт,30.310277777,59.970833333,Russia
"Instituto Tecnológico y Estudios Superiores de Monterrey, Campus en Tampico",-97.902882,22.381468,Mexico
Abia State University,7.3960036,5.8281748,Nigeria
Állatorvostudományi Egyetem,19.077916,47.503281,Hungary
Вологодский государственный педагогический институт,39.8874,59.2238,Russia
Среднеазиатский индустриальный институт,69.207027678,41.352448382,Uzbekistan
Ленинградский государственный аграрный университет,30.38806,59.72972,Russia
Federal University of Technology Minna,6.5463,9.5836,Nigeria
Харьковский инженерно-строительный  институт,36.235509,50.000234,Ukraine
Janáčkova akademie múzických umění,16.61038333,49.19615556,Czech Republic
University of Jos,8.884,9.9692,Nigeria
All Saints University College of Medicine,-79.582778,43.685556,Saint Vincent and the Grenadines
山梨県立大学,138.562583333,36.66375,Japan
"Instituto Tecnológico y Estudios Superiores de Monterrey, Campus Central de Veracruz",-96.9812027,18.8909542,Mexico
Данскі політэхнічны інстытут,40.0862682,47.4168496,Russia
静岡県立大学,138.446389417,34.994701587,Japan
جامعة حلب,37.118333333,36.2,Syria
Государственный институт языков и гуманитарных наук,74.584555555,42.850138888,Kyrgyzstan
Lapin yliopisto,25.7149,66.4853,Finland
Sagar University,78.775130555,23.826583333,India
Днепропетровский химико-технологический институт,35.060430555,48.450891666,Ukraine
Казахский технологический институт,69.592,42.3202,Kazakhstan
Metropolitanuniversität Oslo,10.73340556,59.92186944,Norway
"Instituto Tecnológico y Estudios Superiores de Monterrey, Campus en el Estado de México",-99.228103,19.5942,Mexico
Санкт-Петербургский государственный морской технический университет,30.27611,59.91806,Russia
Латвийская медицинская академия,24.05527778,56.95361111,Latvia
Lappeenrannan–Lahden teknillinen yliopisto LUT,28.09024,61.06456,Finland
جامعة النجاح الوطنية,35.24444444,32.22027778,State of Palestine
Санкт-Петербургский государственный архитектурно-строительный университет,30.3195,59.9144,Russia
"Università degli Studi di Enna ""Kore""",14.2921796,37.5537377,Italy
Пензенский педагогический институт,44.992412,53.184189,Russia
Calvin College,-85.588055555,42.930277777,United States of America
Benue State University,8.556275,7.726538,Nigeria
Federal University Oye Ekiti,4.56666667,7.46666667,Nigeria
Сярэдня-Волжскі індустрыяльны інстытут,50.12593,53.20894,Russia
Bethune–Cookman University,-81.0306,29.2103,United States of America
Universidad Icesi,-76.530198,3.341571,Colombia
Целиноградский сельскохозяйственный институт,71.4094,51.1874,Kazakhstan
Московский архитектурный институт,37.6225,55.76305556,Russia
Запорізький національний університет,35.183467,47.819106,Ukraine
Кыргызский Государственный медицинский институт,74.495185,42.86634,Kyrgyzstan
Полтавський інститут народної освіти,34.555,49.591,Ukraine
Вятское сельскохозяйственное техническое училище,49.65694,58.59556,Russia
Владимирский институт народного образования,40.37917,56.14639,Russia
Маскоўскі авіяцыйны тэхналагічны інстытут,37.39,55.44,Russia
Кемеровский государственный медицинский университет,86.164952,55.338293,Russia
Հայաստանի ազգային ագրարային համալսարան,44.52222222,40.18861111,Armenia
Паволжскі лесатэхнічны інстытут імя М. Горкага,47.893,56.6305,Russia
"Балаковский институт техники, технологии и управления",47.77125001,52.02105557,Russia
Кіраўскі дзяржаўны педагагічны інстытут імя У. І. Леніна,49.676714,58.591274,Russia
Горкаўскі медыцынскі інстытут імя С. М. Кірава,44.0095,56.3294,Russia
Іванаўскі сельскагаспадарчы інстытут,40.988037,56.996305,Russia
Воронежский государственный медицинский университет им. Н. Н. Бурденко,39.2048,51.6775,Russia
Горкаўскі інжынерна-будаўнічы інстытут,43.98861112,56.3188889,Russia
Красноярский государственный аграрный университет,92.8644,56.0119,Russia
Pedagogical University of Cracow,19.908539,50.073942,Poland
"California State University, East Bay",-122.057777777,37.656944444,United States of America
Αθήνησι Εθνικόν και Καποδιστριακόν Πανεπιστήμιον,23.738777777,37.951111111,Greece
Беларускі нацыянальны тэхнічны ўніверсітэт,27.59277778,53.92083333,Belarus
Liszt Ferenc Zeneművészeti Egyetem,19.0645,47.503222,Hungary
上海交通大学,121.42972,31.20083,People's Republic of China
Политехнический институт Особого района Восточных провинций,126.630692,45.746998,People's Republic of China
Iparművészeti Akadémia,18.9898,47.5171,Hungary
Ion Andreescu Képzőművészeti Intézet,23.618435,46.779407,Romania
Балтыйскі федэральны ўніверсітэт імя Імануіла Канта,20.5280444,54.7245944,Russia
Туркменский государственный институт экономики и управления,58.3694,37.8985,Turkmenistan
Illinois Institute of Technology,-87.628333333,41.834652777,United States of America
Universitaire Faculteiten Sint-Aloysius,4.3275,50.8625,Belgium
Удмуртский государственный педагогический институт,53.223888888,56.850555555,Russia
Bowdoin College,-69.962777777,43.908611111,United States of America
Bryn Mawr College,-75.31361,40.02639,United States of America
Pannon Egyetem,17.90805556,47.08861111,Hungary
Kaposvári Egyetem,17.8261,46.3849,Hungary
Budapesti Orvostudományi Egyetem,19.067222222,47.487222222,Hungary
Киргизский государственный технический университет имени И. Раззакова,74.588,42.845,Kyrgyzstan
Харьковский государственный университет питания и торговли,36.194583333,50.041805555,Ukraine
Брестский инженерно-строительный институт,23.758652402,52.096610658,Belarus
Иркутская государственная сельскохозяйственная академия,104.404222,52.243723,Russia
Даугавпилсский государственный учительский институт,26.51666667,55.86944444,Latvia
Lehigh University,-75.379,40.607167,United States of America
Томский педагогический институт,84.976667,56.473889,Russia
"Ave Maria University, Piyanko",7.56265273,8.820521376,Nigeria
University of Johannesburg,27.998888888,-26.183333333,South Africa
Абхазский государственный университет,41.066388888,42.976111111,Republic of Abkhazia
University of Lagos,3.38611111,6.51666667,Nigeria
Растоўскі педагагічны інстытут,39.7286,47.2247,Russia
Академия теоретических знаний,36.228333333,50.004444444,Ukraine
Leninqrad Mexanika İnstitutu,30.3201,59.9158,Russia
Киргизский национальный университет имени Жусупа Баласагына,74.5871,42.8823,Kyrgyzstan
Università del Litorale,13.7294,45.5483,Slovenia
Mudiame University,6.214380944,6.729685505,Nigeria
Vysoká škola chemicko-technologická v Praze,14.38861,50.10222,Czech Republic
Al-Istiqama University,8.954887,11.544127,Nigeria
Szegedi Tudományegyetem,20.1461,46.2502,Hungary
Разанскі дзяржаўны радыётэхнічны інстытут,39.724111111,54.613555555,Russia
Česká technická vysoká škola Františka Josefa v Brně,16.603613888,49.201541666,Czech Republic
Latvijas Augstskola,24.116111111,56.950555555,Latvia
Jyväskylän yliopisto,25.732666666,62.23625,Finland
Пензенская сельскохозяйственная академия,45.107888888,53.167166666,Russia
Univerzita Palackého v Olomouci,17.25914,49.59508,Czech Republic
College of St. Mary of the Springs,-82.9411,39.9927,United States of America
Куйбышаўскі інжынерна-будаўнічы інстытут імя А. І. Мікаяна,50.1050472,53.2001639,Russia
나사렛대학교,127.119,36.79513889,South Korea
Nigerian Defence Academy,7.366495929,10.615721641,Nigeria
Таджикский национальный университет,68.773143,38.589491,Tajikistan
김일성종합대학,125.768333333,39.058055555,North Korea
City College of New York,-73.95,40.8194,United States of America
Чернівецький медичний інститут,25.9322,48.2914,Ukraine
Universitat d'Andorra,1.49056,42.465,Andorra
Közlekedési és Távközlési Műszaki Főiskola,17.6276,47.6935,Hungary
Воронежский государственный университет,39.20609,51.65589,Russia
Université catholique de Louvain - Katholieke Hogeschool te Leuven,4.700638888,50.877861111,Belgium
"Instituto Tecnológico y Estudios Superiores de Monterrey, Campus en Ciudad Obregón",-109.9472427,27.532458,Mexico
Оренбургская сельскохозяйственная академия,55.113,51.762,Russia
Мінская вышэйшая школа МУС СССР,27.57694445,53.91250001,Belarus
Восточно-Казахстанский технический университет,82.591,49.956861,Kazakhstan
Беларуская медыцынская акадэмія паслядыпломнай адукацыі,27.56338,53.910106,Belarus
Вінницький педагогічний інститут,28.496384,49.24172,Ukraine
Гур’еўскі педагагічны інстытут,51.91222,47.09778,Kazakhstan
Самаркандский государственный университет,66.961117306,39.644700794,Uzbekistan
Бранскі дзяржаўны педагагічны інстытут імя акадэміка І. Г. Пятроўскага,34.352338,53.27221,Russia
Маскоўская ветэрынарная акадэмія,37.79358826,55.69815264,Russia
Ваенная інжынерная акадэмія імя Ф. Э. Дзяржынскага,37.6323,55.7496,Russia
Дагестанский государственный университет,47.4939,42.9861,Russia
Новасібірская дзяржаўная медыцынская акадэмія,82.919722,55.035833,Russia
神戸松蔭女子学院大学,135.22958333,34.72733333,Japan
Архангельскі лесатэхнічны інстытут,40.5526,64.5284,Russia
Воронежский государственный технический университет,39.18782,51.68405,Russia
Иссык-Кульский университет,78.4,42.4906,Kyrgyzstan
"Белгородский университет кооперации, экономики и права",36.586077777,50.622502777,Russia
Днепрапятроўскі медыцынскі інстытут,35.0567,48.4612,Ukraine
Ивановский государственный университет,40.957867,57.01907,Russia
Волжская государственная академия водного транспорта,44.0169,56.3275,Russia
Куйбышевский плановый институт,50.21136,53.21634,Russia
Маскоўскі дзяржаўны бібліятэчны інстытут,37.475083,55.894361,Russia
Ленинградский педиатрический медицинский институт,30.33915,59.97818,Russia
Восточно-Казахстанский государственный университет,82.5913,49.9607,Kazakhstan
Всероссийский заочный институт инженеров железнодорожного транспорта,37.527,55.81,Russia
Тверской государственный университет,35.911565,56.854679,Russia
Московский государственный университет тонких химических технологий имени М. В. Ломоносова,37.476944,55.661944,Russia
Государственный аграрный университет Молдовы,28.809,47.062,Moldova
Горьковский педагогический институт,44.00750001,56.32611112,Russia
Всероссийский государственный университет юстиции,46.0382,51.53538,Russia
Сибирский университет потребительской кооперации,82.90944445,54.99027779,Russia
Куйбышевский авиационный институт,50.177615,53.211951,Russia
Днепрапятроўскі інжынерна-будаўнічы інстытут,35.05388056,48.45316111,Ukraine
Цалінаградскі дзяржаўны медыцынскі інстытут,71.4157,51.1814,Kazakhstan
Мордовский агропедагогический институт,45.18139,54.18722,Russia
Паўночна-Асецінскі педагагічны інстытут,44.691279,43.026533,Russia
Карело-Финский государственный университет,34.352418,61.786268,Russia
Казанский медицинский институт,49.14262,55.79028,Russia
Таджыкскі медыцынскі інстытут,68.7854,38.6018,Tajikistan
Ставропольская государственная медицинская академия,41.959641,45.036102,Russia
Саратаўскі політэхнічны інстытут,45.9778,51.5289,Russia
Свердловский правовой институт,60.6567,56.8498,Russia
Universidad Ean,-74.0567257,4.6636673,Colombia
Архангельскі дзяржаўны медыцынскі інстытут,40.5144,64.5422,Russia
Universidad de Sta. Isabel,123.18861,13.62902,Philippines
Северо-Западный заочный политехнический институт,30.32889,59.94528,Russia
2-і Маскоўскі дзяржаўны медыцынскі інстытут,37.4919,55.64685,Russia
Budapesti Corvinus Egyetem,19.058055555,47.486111111,Hungary
Federal University of Agriculture,3.43929,7.22976,Nigeria
Маскоўскае вышэйшае мастацка-прамысловае вучылішча,37.4981,55.8069,Russia
Texas A&M University–Kingsville,-97.8825,27.5251,United States of America
Federal University of  Lafia,8.5227,8.506,Nigeria
1-й Харьковский государственный медицинский институт,36.2285,50.0091,Ukraine
Budapesti Metropolitan Egyetem,19.135,47.50638889,Hungary
Центральноукраїнський державний педагогічний університет імені Володимира Винниченка,32.261633,48.51456,Ukraine
Сібірскі лясны інстытут,92.8689,56.0126,Russia
Ярославский государственный университет им. П. Г. Демидова,39.887222,57.632778,Russia
Ворошиловский зооветеринарный институт,41.961,45.0376,Russia
Országos Rabbiképző – Zsidó Egyetem,19.07,47.49347222,Hungary
Sugiyama Jogakuen University,136.9869972,35.15935278,Japan
Московский государственный университет имени М. В. Ломоносова,37.530555555,55.7025,Russia
Рязанский государственный медицинский университет имени академика И. П. Павлова,39.712,54.622,Russia
"Curtin University, Malaysia",114.01666667,4.51166667,Malaysia
Uniwersytet Zielonogórski,15.50694444,51.93638889,Poland
"Vysoká škola obchodní v Praze, o.p.s.",14.418889,50.073611,Czech Republic
Faculté universitaire Saint-Louis,4.36111,50.85361,Belgium
Троицкий ветеринарный институт,61.54306,54.08444,Russia
Πάντειο Πανεπιστήμιο Κοινωνικών και Πολιτικών Επιστημών,23.7170648,37.9596291,Greece
Dominican University,-87.8225,41.9022,United States of America
Universiteit Leiden,4.485277777,52.156944444,Netherlands
Алтайский государственный педагогический университет,83.7613,53.3417,Russia
University of Ilorin,4.6712,8.4795,Nigeria
多摩大学,139.464280555,35.630513888,Japan
IT-højskolen i København,12.5911,55.6596,Denmark
Саратовская государственная академия права,46.0211,51.5261,Russia
Акадэмія кіравання пры Прэзідэнце Рэспублікі Беларусь,27.538888888,53.886666666,Belarus
Кишиневский государственный университет,28.823611111,47.018611111,Moldova
Pontificia y Real Universidad de Santa Catalina,-3.065411,41.587759,Spain
தமிழ் இணையக் கல்விக்கழகம்,80.23956,13.01849,India
Marosvásárhelyi Művészeti Egyetem,24.561706,46.542937,Romania
Thomas More University,-84.5681,39.0217,United States of America
"University of Nigeria, Nsukka",7.40850782,6.86729717,Nigeria
Московский государственный лингвистический университет,37.59489,55.73872,Russia
Augsburg University,-93.2416,44.9659,United States of America
یُونِیوَرسِٹی آف گُجرات,74.1654,32.6415,Pakistan
Northwestern University,-87.675267,42.0564594,United States of America
Уральскі электрамеханічны інстытут інжынераў чыгуначнага транспарту,60.57863,56.8485,Russia
"Universidad de Artes, Ciencias y Comunicación",-70.622957,-33.444195,Chile
Gallatin School of Individualized Study,-73.9939,40.7293,United States of America
Budapesti Műszaki és Gazdaságtudományi Egyetem,19.05608,47.47985,Hungary
Universidade Portucalense Infante D. Henrique,-8.606944,41.18,Portugal
成都学院,104.188,30.6495,People's Republic of China
Akademia Sztuk Pięknych w Poznaniu,16.9289,52.41,Poland
Навчально-консультаційний пункт Львівського торгово-економічного інституту,34.54294,49.59486,Ukraine
University of Balochistan,66.99,30.166,Pakistan
"Instituto Tecnológico y Estudios Superiores de Monterrey, Campus en Morelia",-101.164116,19.656319,Mexico
Friedrich-Wilhelms-Universität,13.393333,52.518056,Prussia
Universitetet i Tromsø – Norges arktiske universitet,18.973133333,69.680511111,Norway
Yukon College,-135.099,60.7503,Canada
Dominican University,3.903897521,7.433768297,Nigeria
Рижский политехнический институт,24.105138888,56.947130555,Latvia
茨城キリスト教大学,140.61658333,36.51441667,Japan
Duke University,-78.938888888,36.001111111,United States of America
University of Botswana,25.9333,-24.6667,Botswana
Federal University of Technology Owerri,6.985959853,5.393873084,Nigeria
"Instituto Tecnológico y Estudios Superiores de Monterrey, Campus en Puebla",-98.2435197,19.018257,Mexico
Автономная некоммерческая организация высшего образования «Университет Иннополис»,48.743408,55.753449,Russia
Institutul Politehnic din Cluj,23.5833,46.7667,Romania
Nemzeti Közszolgálati Egyetem,19.0858,47.4819,Hungary
Сумские высшие трёхлетние учительские курсы,34.752266,50.889722,Ukraine
豊橋創造大学,137.409,34.7762,Japan
"Instituto Tecnológico y Estudios Superiores de Monterrey, Campus en Cuernavaca",-99.221628,18.805731,Mexico
华东政法大学,121.414,31.2256,People's Republic of China
Днепропетровский металлургический институт,35.0626,48.4534,Ukraine
Mirzo Ulugʻbek nomidagi Oʻzbekiston Milliy Universiteti,69.205,41.35111111,Uzbekistan
Калининградский государственный технический университе,20.498305555,54.720694444,Russia
Katholieke Universiteit te Leuven,4.700293708,50.877963368,Belgium
California Institute of Technology,-118.125,34.1375,United States of America
Chuo Kikuu Huria cha Tanzania,39.2656,-6.7829,Tanzania
Azərbaycan Texnologiya İnstitutu,46.387,40.6887,Azerbaijan
Salisbury University,-75.605833333,38.345555555,United States of America
Universidade Federal do Amapá,-51.082666666,-0.006333333,Brazil
University of St Mark & St John,-4.11,50.4206,United Kingdom
Maryam Abacha American University of Niger,7.122925,13.491304,Niger
Azərbaycan Politexnik İnstitutu,49.815278,40.370278,Azerbaijan
"Instituto Tecnológico y Estudios Superiores de Monterrey, Campus en Toluca",-99.70603333,19.26830833,Mexico
Federal University of Petroleum Resource Effurun,5.78,5.5624,Nigeria
"Nigerian Maritime University Okerenkoko, Delta State",5.407475337,5.61898725,Nigeria
Universitas Studiorum Mickiewicziana Posnaniensis,16.9155,52.4047,Poland
Таджикский аграрный университет,68.7869,38.6094,Tajikistan
Massachusetts Institute of Technology,-71.091944444,42.359722222,United States of America
Manchester University Inc.,-85.7625,41.011111111,United States of America
Харкаўскі інстытут інжынераў чыгуначнага транспарту,36.2463889,49.9913889,Ukraine
"Instituto Tecnológico y Estudios Superiores de Monterrey, Campus en Guadalajara",-103.455902,20.734342,Mexico
Umaru Musa Yar'adua University,7.5734783,12.8858107,Nigeria
広島市立大学,132.41444444,34.43833333,Japan
"Instituto Tecnológico y Estudios Superiores de Monterrey, Campus en Chihuahua",-106.076968,28.674389,Mexico
목포가톨릭대학교,126.41919444,34.82680556,South Korea
Ленинградский государственный педагогический институт имени А. И. Герцена,30.31944444,59.93388889,Russia
神戸女学院大学,135.35194444,34.76083333,Japan
Instituto de Botánica del Nordeste,-58.8237817,-27.4595105,Argentina
Академия биоресурсов и природопользования,34.054444444,45.016388888,Russian Empire
"Federal University, Gusau Zamfara",6.781189708,12.128767171,Nigeria
江苏第二师范学院,118.748625,32.06086667,People's Republic of China
Киргизская государственная академия физической культуры и спорта,74.614566,42.843099,Kyrgyzstan
"Instituto Tecnológico y Estudios Superiores de Monterrey, Campus en San Luis Potosí",-101.038771,22.127229,Mexico
沖縄キリスト教学院大学,127.75555556,26.23833333,Japan
"Instituto Tecnológico y Estudios Superiores de Monterrey, Campus en Chiapas",-93.2030251,16.7650919,Mexico
Ташкентский университет информационных технологий имени Мухаммада аль-Хоразмий,69.28666667,41.34083333,Uzbekistan
Новасібірскі інжынерна-будаўнічы інстытут імя В. У. Куйбышава,82.9588889,55.01416668,Russia
Крымский государственный педагогический институт имени М. В. Фрунзе,30.538527777,50.418611111,Ukraine
Мурманский арктический государственный университет,33.076624,68.964745,Russia
Erzsébet Tudományegyetem,18.237722,46.0741828,Hungary
საქართველოს ტექნიკური უნივერსიტეტი,44.778055555,41.716944444,Georgia
Gödöllői Agrártudományi Egyetem,19.361389,47.593056,Hungary
Cracow University of Economics,19.955667,50.068696,Poland
Országos Magyar Királyi Színművészeti Akadémia,19.06611111,47.49527778,Hungary
Московский государственный технический университет имени Н. Э. Баумана,37.684722222,55.765833333,Russian Empire
Yeshiva University,-73.92972,40.85028,United States of America
St. John's University,-73.795556,40.721944,United States of America
Owens College,-2.2325,53.4675,United Kingdom
Ковенская духоўная семінарыя,23.884,54.897,Lithuania
Національний університет «Запорізька політехніка»,35.1845,47.818,Ukraine
University of Stirling,-3.9195,56.1455,United Kingdom
Admiralty University,5.6547445,5.9161272,Nigeria
Воронежская государственная академия искусств,39.1597,51.7065,Russia
1-й Московский механико-электротехнический техникум им. М. В. Ломоносова,37.711268,55.781547,Russia
Институт архитектуры и строительства Волгоградского государственного технического университета,44.4972,48.6934,Russia
Ставропольский агропедагогический институт,41.962,45.043,Russia
Дальневосточный медицинский институт,135.070687,48.48103301,Russia
Azərbaycan Dövlət Xarici Dillər İnstitutu,49.84301,40.38357,Azerbaijan
Донишгоҳи техникии Тоҷикистон ба номи академик М.С. Осимӣ,68.7586,38.5303,Tajikistan
Одесский государственный аграрный университет,30.7446036,46.468908,Ukraine
Академия изобразительного искусства и архитектуры,30.50727844,50.45869446,Ukraine
Вышэйшыя камерцыйныя курсы,30.35777778,59.995,Russia
Красноярский государственный медицинский университет,92.905667,56.023958,Russia
Moskva Tekstil İnstitutu,37.60147223,55.72018334,Russia
Государственный гуманитарно-технологический университет,39.012413,55.796977,Russia
Ленінградскі тэхналагічны інстытут цэлюлозна-папяровай прамысловасці,30.2807,59.9008,Russia
Маскоўскі інстытут землеўпарадкавання,37.663675,55.76311667,Russia
Растоўскі інстытут сельскагаспадарчага машынабудавання,39.712222,47.237222,Russia
Кокшетауский государственный университет имени Шокана Уалиханова,69.3707,53.2832,Kazakhstan
Алматинский государственный медицинский институт,76.931388888,43.253055555,Kazakhstan
Московский государственный психолого-педагогический университет,37.630619,55.771965,Russia
Uniwersytet Przyrodniczywe Wrocławiu,17.06388889,51.11111111,Poland
Абаканский государственный педагогический институт,91.441697,53.722469,Russia
Lagos State University,3.2009,6.4651,Nigeria
Ленінградскае вышэйшае мастацка-прамысловае вучылішча імя В. Мухінай,30.3408,59.9436,Russia
Висше военно общовойсково училище „Васил Левски“,25.6028,43.0847,Bulgaria
Debreceni Református Kollégium,21.62638889,47.53416667,Hungary
Northern Illinois University,-88.777777777,41.933888888,United States of America
Fourth District Normal School,-93.28079,37.19971,United States of America
Тихоокеанский государственный университет,135.0525,48.531,Russia
大阪商業講習所,135.507538888,34.592736111,Japan
Дальневосточный государственный университет,131.891944444,43.029166666,Russia
日本大学,139.73760833,35.691,Japan
Utah Tech University,-113.578,37.0953,United States of America
Trinity University,-98.482042,29.463794,United States of America
Latvijas Biozinātņu un tehnoloģiju universitāte,23.76027778,56.66694444,Latvia
وِفاقی اُردوٗ یوٗنِیوَرسِٹی بَرائے فُنُون، سائنس اَور ٹیکنالوجی,67.0907,24.912,Pakistan
Eastern Washington University,-117.582888888,47.491361111,United States of America
"Universiteti ""Aleksandër Moisiu"" Durrës",19.434216,41.313534,Albania
國立高雄大學,120.284675,22.73330278,Taiwan
جامعة البعث,36.7086,34.7128,Syria
Hunan University of Science and Engineering,111.61,26.2294,People's Republic of China
Факультет садівництва та городництва при Вищій робітничій школі,34.5554,49.5952,Ukraine
Ереванский государственный экономический университет,44.524741666,40.184227777,Armenia
Наваполацкі політэхнічны інстытут,28.6467,55.5287,Belarus
Taideyliopiston Sibelius-Akatemia,24.9325,60.171666666,Finland
Taideyliopiston Kuvataideakatemia,24.9479308,60.196958,Finland
Northwestern State College of Louisiana,-93.096394,31.750038,United States of America
Палтаўскі інжынерна-будаўнічы інстытут,34.567076,49.576143,Ukraine
Казанский институт инженеров коммунального строительства,49.1455,55.7835,Russia
Vytauto Didžiojo universitetas,23.913888888,54.898333333,Lithuania
고려사이버대학교,126.987028,37.586917,South Korea
Академия общественных наук при ЦК КПСС,37.4786,55.665,Russia
Uniwersytet Wrocławski,17.033333333,51.113611111,Poland
Крымский государственный медицинский университет,34.08949,44.96039,Ukraine
Sheffield City Polytechnic,-1.464706,53.379105,United Kingdom
Leeds Beckett University,-1.549444444,53.804166666,United Kingdom
Белорусский театрально-художественный институт,27.60111111,53.92277778,Belarus
Киевский национальный университет строительства и архитектуры,30.4662,50.4276,Ukraine
國防大學,121.30677778,24.93422222,Taiwan
Черкаський державний педагогічний інститут,32.0445,49.4551,Ukraine
Туркменский сельскохозяйственный университет имени С. А. Ниязова,58.38709723,37.93079168,Turkmenistan
Уральский государственный педагогический университет,60.61615,56.88,Russia
Norges miljø- og biovitenskapelige universitet,10.765227777,59.665108333,Norway
Южно-Уральский государственный медицинский университет,61.3726,55.1399,Russia
Санкт-Петербургский государственный университет аэрокосмического приборостроения,30.2995,59.9288,Russia
Київський художній інститут,30.5002965,50.4522735,Ukraine
Kungl. Universitetet i Göteborg,11.971666666,57.698333333,Sweden
Драгобыцкі настаўніцкі інстытут,23.4991791,49.3549236,Ukraine
Российская академия народного хозяйства и государственной службы при Президенте Российской Федерации,37.479,55.667,Russia
"Federal State Autonomous Educational Institution of Higher Education ""M. K. Ammosov North-Eastern Federal University""",129.71056,62.02139,Russia
Stetson University,-81.30264,29.034972,United States of America
Azərbaycan Dövlət Konservatoriyası,49.844444444,40.377222222,Azerbaijan
Universiteit Utrecht,5.175,52.085277777,Netherlands
Al-Hikmah University,4.506111,8.485446,Nigeria
University of South Florida,-82.413694444,28.0545,United States of America
Nnamdi Azikiwe University,7.118289,6.242889,Nigeria
Цюменскі дзяржаўны медыцынскі інстытут,65.576,57.1374,Russia
Ленинградский институт водного транспорта,30.2532,59.9091,Russia
Lamar University,-94.075,30.041944444,United States of America
久留米大学,130.511111111,33.328694444,Japan
Харкаўскі фармацэўтычны інстытут,36.24111111,49.99305556,Ukraine
Solent University,-1.401,50.908,United Kingdom
Харьковская медицинская академия последипломного образования,38.01805557,48.30416668,Ukraine
Высший нефтяной техникум,45.681558,43.317041,Russia
Universidade do Espírito Santo,-40.3036766,-20.2766256,Brazil
Hawaiʻi Pacific University,-157.859,21.311,United States of America
Uniwersytet Rolniczy im. Hugona Kołłątaja w Krakowie,19.92472222,50.06472222,Poland
Одесский государственный экономический университет,30.74184,46.47837,Ukraine
Житомирський сільськогосподарський інститут,28.66861111,50.24861111,Ukraine
Тюменский государственный нефтегазовый университет,65.5445,57.1524,Russia
김원균명칭 평양음악대학,125.789971892,39.01943662,North Korea
Уральский государственный архитектурно-художественный университет,60.61183,56.83989,Russia
Челябинский государственный технический университет,61.37172,55.15964,Russia
北京第二外国语学院,116.557699,39.909286,People's Republic of China
جامعة شعيب الدكالي,-8.48722222,33.22638889,Morocco
Воронежский государственный аграрный университет имени императора Петра I,39.226287,51.713293,Russia
Vysoká škola uměleckoprůmyslová v Praze,14.414722222,50.088611111,Czech Republic
神田外語大学,140.04397222,35.65723333,Japan
Адэскі медыцынскі інстытут,30.72573,46.49344,Ukraine
Львівський інститут прикладного та декоративного мистецтва,24.0392,49.825,Ukraine
Куйбышевский педагогический и учительский институт,50.205416,53.21373,Russia
Куйбышевский сельскохозяйственный институт,50.577621,53.266323,Russia
Магнитогорский вечерний индустриально-педагогический институт,58.9873,53.388,Russia
Арэнбургская дзяржаўная медыцынская акадэмія,55.106094,51.756256,Russia
Кіеўскі аўтамабільна-дарожны інстытут,30.549963,50.440022,Ukraine
Красноярский государственный педагогический университет имени В. П. Астафьева,92.859916666,56.015027777,Russia
Академия гражданской авиации,30.29111111,59.81916667,Russia
Хабараўскі інстытут інжынераў чыгуначнага транспарту,135.063139,48.49349501,Russia
Главное училище садоводства,30.23416667,48.76694444,Ukraine
Валагодскі малочны інстытут,39.67972,59.28639,Russia
Маскоўскі тэхналагічны інстытут харчовай прамысловасці,37.496666666,55.806944444,Russia
Кемеровский горный институт,86.078,55.348,Russia
Ленінградскі ветэрынарны інстытут,30.32389,59.89417,Russia
Растоўскі інжынерна-будаўнічы інстытут,39.73266,47.22355,Russia
Крымская академия природоохранного и курортного строительства,34.089,44.986,Ukraine
Цюменскі сельскагаспадарчы інстытут,65.52778,57.16028,Russia
Казанский национальный исследовательский технологический университет,49.1451,55.7859,Russia
Пензенскі індустрыяльны інстытут,45.0036,53.1817,Russia
Харківський державний аграрний університет ім. В. В. Докучаєва,36.448,49.8945,Ukraine
Государственный педагогический университет имени Иона Крянгэ,28.81194444,47.03611111,Moldova
Philadelphia College of Pharmacy,-75.2075,39.9461,United States of America
Казахская национальная академия искусств имени Т. К. Жургенова,76.9445,43.2518,Kazakhstan
Волгоградская государственная сельскохозяйственная академия,44.4418972,48.6747389,Russia
دانشگاه بینالمللی امام خمینی,50.0,36.32,Iran
Благовещенский педагогический институт,127.540864,50.2568,Russia
Беларуская дзяржаўная акадэмія фізічнага выхавання і спорту,27.48972222,53.93555556,Byelorussian Soviet Socialist Republic
Московский ордена Ленина химико-технологический институт имени Д. И. Менделеева,37.5955,55.779,Russia
Могилевский государственный университет имени А.А. Кулешова,30.31643,53.91221,Belarus
Белорусский университет культуры,27.54166667,53.88694444,Belarus
Московский зоотехнический институт коневодства и коннозаводства,53.1788,56.8617,Russia
Высшая следственная школа МВД СССР,44.482194,48.75621,Russia
Донецкий государственный коммерческий институт,33.360583333,47.880194444,Ukraine
جامعة صنعاء,44.18446667,15.36509167,Yemen
Гродзенскі сельскагаспадарчы інстытут,23.84828,53.6962,Belarus
Усесаюзная акадэмія знешняга гандлю,37.534,55.727,Russia
école centrale rabbinique de Metz,2.347694444,48.840944444,France
Ворошиловградський державний педагогічний інститут,39.3167,48.565,Ukraine
Днепровский государственный технический университет,34.56916667,48.53805556,Ukraine
Ніжинський фізико-математичний ліцей,31.88083333,51.0525,Ukraine
Federal University Kashere,10.951202,9.984743,Nigeria
"Instituto Tecnológico y Estudios Superiores de Monterrey, Campus en la Ciudad de México",-99.135926,19.284056,Mexico
Palestine Technical University,35.018715,32.313442,State of Palestine
Байкальский государственный университет,104.2827778,52.28055556,Russia
"Instituto Tecnológico y Estudios Superiores de Monterrey, Campus en Ciudad Juárez",-106.3966325,31.7156837,Mexico
Nasarawa State University,7.8776,8.8471,Nigeria
Гомельскі аграпедагагічны інстытут,31.00111111,52.44305556,Belarus
Белгародскі педагагічны інстытут,36.5769,50.5941,Russia
Всесоюзный заочный институт текстильной и лёгкой промышленности,37.5018,55.7856,Russia
Бухарскі педагагічны інстытут,64.422,39.76,Uzbekistan
桃山学院教育大学,135.53444444,34.48330556,Japan
University Campus Suffolk,1.1635,52.0525,United Kingdom
Chatham College,-79.92583,40.44917,United States of America
Shamsipour Technical College,51.452222222,35.704166666,Iran
Pittsburg State University,-94.7036,37.3913,United States of America
Lincoln University,-75.927777777,39.808333333,United States of America
成都地质学院,104.136944,30.665833,People's Republic of China
The Education University of Hong Kong,114.194,22.4689,People's Republic of China
آغا خان یوٗنِیوَرسِٹی,67.0747,24.8928,Pakistan
агрономическое отделение Земледельческого института,30.343658,59.993117,Russia
V.C.S.G Uttarakhand University of Horticulture and Forestry,78.997744444,30.060002777,India
"Instituto Tecnológico y Estudios Superiores de Monterrey, Campus en Monterrey",-100.290053,25.651469,Mexico
Akwa Ibom State University,7.91247,5.038614,Nigeria
"Instituto Tecnológico y Estudios Superiores de Monterrey, Campus en Santa Fe",-99.2602071,19.3597735,Mexico
Российский государственный институт сценических искусств,30.345817,59.940603,Russia
Univerzita Hradec Králové,15.82645,50.209880555,Czech Republic
"Instituto Tecnológico y Estudios Superiores de Monterrey, Campus en Irapuato",-101.3970364,20.6867846,Mexico
Ташкентский государственный педагогический институт,69.204927,41.273063,Uzbekistan
Харьковский институт радиоэлектроники,36.22777778,50.015,Ukraine
Federal University of Technology Akure,5.1388,7.3037,Nigeria
足利大学,139.39705556,36.35319444,Japan
Suzuka University,136.539,34.8086,Japan
Federal University Gashua,11.004647235,12.881298679,Nigeria
Skyline University,8.532894023,11.986007267,Nigeria
Universidade Federal do Amapá - Campus Santana,-51.180473055,-0.018523055,Brazil
Universitatea Regele Ferdinand I din Cluj,23.591111,46.767683,Romania
Мінскі інстытут кіравання,27.6602,53.8699,Belarus
"Metropolitní univerzita Praha, o.p.s.",14.497856,50.069492,Czech Republic
Fountain University Osogbo,4.546027,7.743853,Nigeria
Εθνικό Μετσόβιο Πολυτεχνείο,23.731613888,37.987863888,Greece
"Instituto Tecnológico y Estudios Superiores de Monterrey, Campus en Hidalgo",-98.7681127,20.0958883,Mexico
"Instituto Tecnológico y Estudios Superiores de Monterrey, Campus Laguna",-103.4007654,25.5180309,Mexico
Marylhurst College,-122.646,45.3983,United States of America
Kampala International University,32.60416667,0.295,Uganda
"Kano University of Science and Technology, Wudil",8.833333333,11.783333333,Nigeria
Высшая комсомольская школа при ЦК ВЛКСМ,37.814,55.7299,Russia
Віленскі ўніверсітэт,25.287222222,54.6825,Lithuania
国立大学法人東京工業大学,139.683888888,35.605,Japan
האוניברסיטה העברית בירושלים,35.2,31.775833333,Israel
Казанский учительский институт,49.1173,55.7846,Russia
"University of California, Los Angeles",-118.444166666,34.072222222,United States of America
Madison College,-78.87375,38.438444444,United States of America
San Jose State University,-121.881111111,37.335555555,United States of America
Bányamérnöki és Erdőmérnöki Főiskola,16.577222222,47.680277777,Hungary
Омский государственный технический университет,73.3569,55.0156,Russia
Саратовский государственный университет им. Н. Г. Чернышевского,46.014444444,51.531666666,Russian Empire
Debreceni Egyetem,21.621388888,47.553888888,Hungary
Universidade Católica de Moçambique,34.8654,-19.8473,Mozambique
奈良先端科学技術大学院大学,135.7325,34.73222222,Japan
ŠKODA AUTO Vysoká škola o.p.s.,14.902481,50.415608,Czech Republic
Волгоградский государственный социально-педагогический университет,44.5281,48.71435,Russia
جامعة الزيتونة للعلوم والتكنولوجيا,35.2155823,32.0779908,State of Palestine
Національний технічний університет «Харківський політехнічний інститут»,36.25,50.0,Ukraine
KNUTE,30.638055555,50.465833333,Ukraine
中山大學,113.29944444,23.09666667,People's Republic of China
Маскоўскі інжынерна-эканамічны інстытут,37.814105,55.714698,Russia
Spiritan University,7.340904092,5.9531716,Nigeria
Óbuda University,19.034930555,47.533777777,Hungary
"University of California, Davis",-121.75,38.54,United States of America
東京神学大学,139.534,35.6883,Japan
Dunaújvárosi Egyetem,18.9286291,46.9625191,Hungary
Univerzita Tomáše Bati ve Zlíně,17.664855555,49.222655555,Czech Republic
Одесский государственный педагогический институт,30.7213,46.4805,Ukraine
Kansas State Agricultural College,-96.580833333,39.191666666,United States of America
Université de l’État à Liège,5.574722,50.640833,Belgium
Tampereen yliopisto,23.778055555,61.494166666,Finland
Westland University,4.200378,7.707875,Nigeria
Corpus Christi State University,-97.3254,27.7121,United States of America
Ekiti State University,5.25753,7.72117,Nigeria
Вышэйшая тэхнічная школа,24.827777777,60.185833333,Finland
Northwestern University in Qatar,51.445628,25.318341,Qatar
جَامِعَة مُحَمَّد الْخَامِس,-6.84382,33.99833,Morocco
Trinity university,3.3837945,6.50546528,Nigeria
Tufts University,-71.11982,42.406949,United States of America
Омский государственный аграрный университет имени П. А. Столыпина,73.312658,55.022684,Russia
The Fletcher School of Law and Diplomacy,-71.12169,42.407662,United States of America
Dominion University,3.801211512,7.190814839,Nigeria
Універсітэт Казіміра Вялікага ў Быдгашчы,18.0196,53.1278,Poland
Crown-Hill University,4.446166707,8.398177234,Nigeria
Universitetet i Agder,8.003222222,58.163005555,Norway
Lincoln University,-92.16947,38.56507,United States of America
Российский университет транспорта,37.608055555,55.787777777,Russia
Legacy University,6.849042215,5.889537999,Nigeria
Ереванский политехнический институт,44.523108333,40.191108333,Armenia
Université de l'État à Gand,3.726111111,51.043888888,Belgium
Budapesti Gazdasági Egyetem,19.12472222,47.50805556,Hungary
Vrije Universiteit Brussel,4.39338,50.82186,Belgium
Gallaudet University,-76.993055555,38.907222222,United States of America
"Vysoká škola mezinárodních a veřejných vztahů Praha, o.p.s.",14.399086,50.068106,Czech Republic
Central Washington University,-120.54,47.002,United States of America
University of Houston,-95.339162,29.718922,United States of America
جَامِعَہ لاہَور بَراۓ اِنْتِظَامی سائَنْسِز,74.4111,31.47,Pakistan
Uniwersytet Muzyczny Fryderyka Chopina,21.02227,52.235653888,Poland
国立大学法人北陸先端科学技術大学院大学,136.59263889,36.44452778,Japan
Літоўская сельскагаспадарчая акадэмія,23.94813889,54.91016667,Lithuania
Санкт-Петербургский политехнический институт,30.376682,60.006174,Russia
Vysoká škola báňská - Technická univerzita Ostrava,18.164,49.8333,Czech Republic
Johns Hopkins University,-76.620555555,39.328888888,United States of America
Havilla University,8.728927639,5.966967592,Nigeria
Universitat Politècnica de Catalunya,2.11603,41.38869,Spain
Centenary Biblical Institute,-76.5832,39.3459,United States of America
Atiba University,3.914718969,7.852296751,Nigeria
Pamo University,7.102676646,4.860179368,Nigeria
Toshkent arxitektura-qurilish instituti,69.2616,41.3202,Uzbekistan
Karl Kumm University,8.772465326,9.701186041,Nigeria
Temple University,-75.154444444,39.981388888,United States of America
"Ecole des mines et de métallurgie, faculté technique de la province de Hainaut, à Mons",3.9525,50.451944,Belgium
University of Massachusetts Boston,-71.038445,42.313432,United States of America
Казанский (Приволжский) федеральный университет,49.121911111,55.79075,Russia
"University of New York in Prague, s.r.o.",14.430456,50.076272,Czech Republic
Vysoká škola ekonomická v Praze,14.44125,50.08425,Czech Republic
UCLA Luskin School of Public Affairs,-118.44,34.075555555,United States of America
Харківське пожежно-технічне училище,36.24808,50.01125,Ukraine
Дзяржаўны ордэна Леніна інстытут фізічнай культуры імя П. Ф. Лесгафта,30.29027779,59.9263889,Russia
Маскоўскі дзяржаўны завочны педагагічны інстытут,37.6511,55.7435,Soviet Union
Нижегородский университет,44.025278,56.326389,Russia
Adamawa State University,13.280169,10.281245,Nigeria
Пензенский государственный университет архитектуры и строительства,44.979583333,53.223416666,Russia
Московська державна академія хореографії,37.5809,55.7217,Russia
Московская государственная геологоразведочная академия,37.5135,55.65,Russia
Сибирская горно-металлургическая академия,87.116666666,53.75,Russia
Тюменская государственная архитектурно-строительная академия,65.51305557,57.1663889,Russia
Московский государственный областной университет,37.715666666,55.896388888,Russia
Пермская государственная сельскохозяйственная академия имени академика Д.Н. Прянишникова,56.2483,58.0164,Russia
Пермский государственный гуманитарно-педагогический университет,56.255,58.009,Russia
Московский государственный университет печати имени Ивана Фёдорова,37.54411389,55.83346389,Russia
Рівненський педагогічний інститут,26.25263611,50.61273333,Ukraine
Національний університет «Чернігівська політехніка»,31.335,51.50527778,Ukraine
Международный университет нефти и газа имени Ягшигельды Какаева,58.39,37.8757,Turkmenistan
Gorky Pedagogical Institute of Foreign Languages,44.02833333,56.32472222,Russia
Курскі педагагічны інстытут,36.190567,51.735314,Russia
"Дніпропетровська академія управління, бізнесу та права",35.0427,48.472,Ukraine
Российский университет кооперации,37.72732,55.89317,Russia
Маскоўскі дзяржаўны ўніверсітэт лесу,37.7911,55.9275,Russia
Северо-Восточный государственный университет,150.793512,59.563905,Russia
Поморский государственный университет им. М. В. Ломоносова,40.5649,64.5306,Russia
Маскоўскі інстытут інжынераў сувязі,37.71194,55.75528,Russia
2-і Ленінградскі медыцынскі інстытут,30.4374,59.9827,Russia
Національний педагогічний університет імені Михайла Драгоманова,30.50694444,50.44472222,Ukraine
Свярдлоўскі медыцынскі інстытут,60.5763,56.833,Russia
Ростовский институт инженеров железнодорожного транспорта,39.69833334,47.25083334,Russia
Ырымбур дәүләт педагогия университеты,55.1028,51.76,Russia
Черниговский государственный педагогический университет им. Т. Г. Шевченко,31.31555556,51.50027778,Ukraine
Adelphi College,-73.6517,40.7202,United States of America
Ужгородский национальный университет,22.2902,48.6357,Ukraine
Чыцінскі дзяржаўны педагагічны інстытут,113.499657,52.039299,Russia
Саратаўскі медыцынскі інстытут,46.0078,51.5383,Russia
Омскі інстытут інжынераў чыгуначнага транспарту,73.3847,54.9694,Russia
Глуховский учительский институт,33.9161,51.6779,Ukraine
агрономический факультет Саратовского университета,46.034561,51.530565,Russia
Красноярский государственный технический университет,92.8715,56.0139,Russia
Свярдлоўскі сельскагаспадарчы інстытут,60.612,56.844,Russia
"Instituto Tecnológico y Estudios Superiores de Monterrey, Campus en Léon",-101.717787,21.1661051,Mexico
Micheal and Cecilia Ibru University,6.060802369,5.538246752,Nigeria
Curtin Mauritius,57.513135527,-20.229336849,Mauritius
"Instituto Tecnológico y Estudios Superiores de Monterrey, Campus en Zacatecas",-102.5368351,22.7626826,Mexico
Universität Karlsruhe,8.411666666,49.009444444,Germany
المدرسة الوطنية للمناجمنت وإدارة الصحة,3.255004,36.808092,Algeria
Arthur Javis University,8.455647957,4.940011895,Nigeria
American University of Barbados,-59.579036488,13.091501961,Barbados
Magyar Táncművészeti Egyetem,19.0906657,47.5197572,Hungary
Universiti Teknikal Malaysia Melaka,102.318397,2.31382,Malaysia
"Instituto Tecnológico y Estudios Superiores de Monterrey, Campus en Aguascalientes",-102.34002,21.933925,Mexico
Московский государственный строительный университет,37.69194445,55.85750001,Russia
Кироваканский государственный педагогический институт,44.4908,40.8089,Armenia
Obafemi Awolowo University,4.52277778,7.51833333,Nigeria
"Instituto Tecnológico y Estudios Superiores de Monterrey, Campus en Querétaro",-100.403602,20.613329,Mexico
Universidad Autónoma de Yucatán,-89.6231,20.9697,Mexico
Вологодский государственный технический университет,39.896389,59.221944,Russia
Горы-Горацкі земляробчы інстытут,30.989166666,54.296388888,Belarus
Могилевский машиностроительный институт,30.34395,53.907753,Belarus
澳門大學,113.545757,22.13033,People's Republic of China
Валгаградская медыцынская акадэмія,44.515,48.7069,Russia
Заокский университет Церкви Христиан-Адвентистов Седьмого Дня,37.419168888,54.728691111,Russia
Chapman University,-117.851388888,33.792777777,United States of America
"Raja Shankar Shah University, Chhindwara",78.949,22.07,India
جَامِعَة السُّلْطَان قَابُوس,58.1691,23.6004,Oman
Львоўскі дзяржаўны аграрны ўніверсітэт,24.092,49.9,Austria-Hungary
"Det Kongelige Danske Kunstakademis Skoler for Arkitektur, Design og Konservering – Designskolen",12.6043,55.6832,Denmark
Mankato Normal School,-93.998611111,44.146111111,United States of America
Professor Jayashankar Telangana State Agricultural University,78.417544444,17.322627777,India
Беларускі інстытут механізацыі і электрыфікацыі сельскай гаспадаркі,27.62244,53.92732,Byelorussian Soviet Socialist Republic
Международный высший колледж по радиоэкологии имени А. Д. Сахарова,27.61444444,53.89305556,Belarus
Уладзівастоцкі медыцынскі інстытут,131.547,43.751,Russia
Ленинаканский педагогический институт,43.83111111,40.83,Armenia
香港中文大學,114.206791666,22.419722222,People's Republic of China
Гродзенскі медыцынскі інстытут,23.8172,53.7007,Belarus
उत्तर प्रदेश आयुर्विज्ञान विश्वविद्यालय,78.960277777,26.960694444,India
首都师范大学,116.30027778,39.92944444,People's Republic of China
Yobe State University,11.946,11.678,Nigeria
Universidad Autónoma Indígena de México,-108.9285,25.9496,Mexico
सावित्रीबाई फुले पुणे विद्यापीठ,73.824621,18.552339,India
Національний авіаційний університет,30.42985082,50.44027652,Ukraine
Szegedi Orvostudományi Egyetem,20.148806242,46.246000988,Hungary
Ташкентский государственный аграрный университет,69.34055556,41.36222222,Uzbekistan
"Державний вищий навчальний заклад ""Донецький національний технічний університет""",37.178333333,48.278055555,Ukraine
Imo State University,7.0404302,5.5077273,Nigeria
Pécsi Tudományegyetem,17.106711,48.143908,Kingdom of Hungary
Adekunle Ajasin University,5.748411,7.479234,Nigeria
Azərbaycan Dövlət İncəsənət İnstitutu,49.821111111,40.38,Azerbaijan
Ambrose Alli University,6.084552,6.744634,Nigeria
Южно-Уральский государственный гуманитарно-педагогический университет,61.3878,55.159,Russia
Усесаюзны завочны інстытут савецкага гандлю Наркамгандлю СССР,37.47805556,55.86527778,Russia
Curtin University Dubai,55.410516831,25.125458456,United Arab Emirates
Federal University Dutsin-Ma,7.48600006,12.47280025,Nigeria
Saint Mary's University of Minnesota,-91.696143,44.044753,United States of America
Zürcher Hochschule der Künste,8.5358,47.38295,Switzerland
جامعة وهران 2 محمد بن احمد,-0.536460317,35.735437615,Algeria
Michael Okpara University of Agricultural Umudike,7.54568889,5.48066389,Nigeria
Curtin Singapore,103.779566881,1.288420567,Singapore
Вінницький національний медичний університет ім. М. І. Пирогова,28.446,49.2279,Ukraine
Лиепайская педагогическая академия,21.0101,56.5087,Latvia
Université des Comores,43.277962611,-11.7325,Comoros
Azərbaycan Dövlət Pedaqoji İnstitutu,49.8483,40.3729,Azerbaijan
Pratt Institute School of Information,-73.998947,40.73793,United States of America
Казахский горно-металлургический институт,76.931569,43.23648,Kazakhstan
Unicorn College s.r.o.,14.4631,50.0868,Czech Republic
Universidad Andina Simón Bolívar,-65.260108,-19.049856,Ecuador
Сибирский государственный медицинский университет,84.9475,56.46944444,Russia
Тюменский агропедагогический институт,65.53055557,57.15972223,Russia
Академия Федеральной службы безопасности Российской Федерации,37.4703,55.6833,Russia
